{"institutions":[{"name":"Escuela Primaria Benito Juárez","logo":"http:\/\/localhost:8080\/wordpress\/wp-content\/uploads\/2024\/10\/TCW-Logo.png","lat":19.4095607,"lng":-99.1600446,"state":"Ciudad de México","location":"Xochimilco","country":"México","link":"http:\/\/decotux.org\/"},{"name":"Instituto Tecnológico de Monterrey","logo":"http:\/\/localhost:8080\/wordpress\/wp-content\/uploads\/2024\/10\/DocArbol-2024.png","lat":25.651889,"lng":-100.289635,"state":"Nuevo León","location":"Galeana","country":"México","link":"http:\/\/decotux.org\/"},{"name":"Universidad de Guadalajara","logo":"http:\/\/localhost:8080\/wordpress\/wp-content\/uploads\/2023\/03\/RedOja-1.png","lat":20.673789,"lng":-103.343804,"state":"Jalisco","location":"Guadalajara","country":"México","link":"http:\/\/decotux.org\/"},{"name":"Universidad Nacional Autónoma de México","logo":"http:\/\/localhost:8080\/wordpress\/wp-content\/uploads\/2023\/03\/JovenEmprendedorForestal.png","lat":19.324446,"lng":-99.18123,"state":"Ciudad de México","location":"Coyoacán","country":"México","link":"http:\/\/decotux.org\/"},{"name":"Miceliando","logo":"http:\/\/localhost:8080\/wordpress\/wp-content\/uploads\/2025\/04\/LogoMiceliando.png","lat":4.7071332244922,"lng":-74.08241741051054,"state":"Sudamérica","location":"Bogotá","country":"Colombia","link":"#"}]}